{ "positions" : 
[{"deptSeq":226,"deptName":"369펜션","deptLatitude":33.47371025,"deptLongitude":126.645997},{"deptSeq":315,"deptName":"가든블루","deptLatitude":38.04364239,"deptLongitude":127.374561},{"deptSeq":394,"deptName":"가원별장 펜션","deptLatitude":37.62218608,"deptLongitude":127.631772},{"deptSeq":969,"deptName":"개팔자상팔자펜션","deptLatitude":37.61005847,"deptLongitude":127.684292},{"deptSeq":1004,"deptName":"거제 블루캐슬 애견펜션","deptLatitude":34.79099186,"deptLongitude":128.665195},{"deptSeq":1016,"deptName":"거제해돋이 애견펜션","deptLatitude":34.99896429,"deptLongitude":128.692509},{"deptSeq":748,"deptName":"강이네하우스","deptLatitude":38.06692416,"deptLongitude":128.583355},{"deptSeq":759,"deptName":"강촌레일파크","deptLatitude":37.84274539,"deptLongitude":127.550947},{"deptSeq":764,"deptName":"강화 고벵이 오션뷰 수영장 애견동반 펜션","deptLatitude":37.6273168,"deptLongitude":126.37992},{"deptSeq":765,"deptName":"강화 로만티카애견리조트","deptLatitude":37.60418699,"deptLongitude":126.411654},{"deptSeq":769,"deptName":"강화 어나더153 애견펜션","deptLatitude":37.5944154,"deptLongitude":126.437672},{"deptSeq":772,"deptName":"강화 팽나무 펜션","deptLatitude":37.6174018,"deptLongitude":126.388439},{"deptSeq":775,"deptName":"강화도바다네스파펜션","deptLatitude":37.60624479,"deptLongitude":126.479886},{"deptSeq":776,"deptName":"강화돌담캠핑 글램핑","deptLatitude":37.70120264,"deptLongitude":126.328233},{"deptSeq":784,"deptName":"개가사는그집 펜션","deptLatitude":37.73923783,"deptLongitude":127.50469},{"deptSeq":823,"deptName":"개들의수다","deptLatitude":37.60457184,"deptLongitude":126.776563},{"deptSeq":836,"deptName":"개리비안베이","deptLatitude":36.75522415,"deptLongitude":126.211853},{"deptSeq":928,"deptName":"개울가 오토 캠핑장","deptLatitude":37.60300317,"deptLongitude":127.494925},{"deptSeq":1166,"deptName":"게스트하우스 하하네","deptLatitude":37.54624807,"deptLongitude":126.935585},{"deptSeq":1536,"deptName":"고운정","deptLatitude":35.20511584,"deptLongitude":126.777242},{"deptSeq":1353,"deptName":"경주장","deptLatitude":35.84139023,"deptLongitude":129.215401},{"deptSeq":1358,"deptName":"경포코지펜션","deptLatitude":37.79432267,"deptLongitude":128.913484},{"deptSeq":1810,"deptName":"구례 지리산 봉쥬르펜션","deptLatitude":35.2024311,"deptLongitude":127.601196},{"deptSeq":1574,"deptName":"고흥 누림펜션","deptLatitude":34.49090796,"deptLongitude":127.475862},{"deptSeq":1576,"deptName":"고흥 힐링 펜션","deptLatitude":34.43239437,"deptLongitude":127.196936},{"deptSeq":2049,"deptName":"궁호텔","deptLatitude":35.83504606,"deptLongitude":127.13141},{"deptSeq":2081,"deptName":"그디글라 게스트하우스","deptLatitude":33.4589441,"deptLongitude":126.433853},{"deptSeq":2084,"deptName":"그랑샤리오펜션","deptLatitude":37.47853623,"deptLongitude":128.273022},{"deptSeq":2114,"deptName":"그레이캐슬펜션","deptLatitude":37.74206533,"deptLongitude":126.95322},{"deptSeq":1834,"deptName":"구름이쉬어가는곳펜션","deptLatitude":37.56615818,"deptLongitude":128.352506},{"deptSeq":1971,"deptName":"군산 선유도리조트","deptLatitude":35.8134707,"deptLongitude":126.409776},{"deptSeq":2041,"deptName":"굿모닝하우스 펜션","deptLatitude":37.82977532,"deptLongitude":127.434745},{"deptSeq":2188,"deptName":"그린듯이 아름다운","deptLatitude":37.90861481,"deptLongitude":127.380467},{"deptSeq":2234,"deptName":"그림하우스","deptLatitude":35.17292101,"deptLongitude":129.19744},{"deptSeq":2241,"deptName":"글램핑코리아 양주애견점","deptLatitude":37.77384124,"deptLongitude":126.96138},{"deptSeq":2615,"deptName":"꼴 게스트하우스","deptLatitude":35.81809089,"deptLongitude":127.152021},{"deptSeq":2660,"deptName":"꽃지해송펜션","deptLatitude":36.49294838,"deptLongitude":126.337958},{"deptSeq":2661,"deptName":"꽃지해수욕장","deptLatitude":36.50516785,"deptLongitude":126.362764},{"deptSeq":2416,"deptName":"김녕해수욕장","deptLatitude":33.55720814,"deptLongitude":126.736551},{"deptSeq":2577,"deptName":"깔끄막 희컨집","deptLatitude":37.74469291,"deptLongitude":126.461029},{"deptSeq":2582,"deptName":"깜포펜션","deptLatitude":37.64672294,"deptLongitude":128.487006},{"deptSeq":2679,"deptName":"꿈꾸는 다도해","deptLatitude":34.77896356,"deptLongitude":128.575209},{"deptSeq":2807,"deptName":"나비스호텔","deptLatitude":33.48646199,"deptLongitude":126.391537},{"deptSeq":3193,"deptName":"놀개나개","deptLatitude":37.49179264,"deptLongitude":126.536835},{"deptSeq":2954,"deptName":"남양펜션","deptLatitude":37.96773421,"deptLongitude":127.581907},{"deptSeq":2957,"deptName":"남원 하늘정원 빌리지","deptLatitude":35.35095991,"deptLongitude":127.552608},{"deptSeq":2982,"deptName":"남해 바다의숲펜션","deptLatitude":34.73424344,"deptLongitude":128.03662},{"deptSeq":2983,"deptName":"남해 상상양떼목장 편백숲","deptLatitude":34.93570763,"deptLongitude":127.890579},{"deptSeq":2985,"deptName":"남해독일마을","deptLatitude":34.79835386,"deptLongitude":128.041609},{"deptSeq":2994,"deptName":"낮은굴뚝펜션","deptLatitude":36.86833938,"deptLongitude":126.294464},{"deptSeq":3097,"deptName":"노루목홍천강","deptLatitude":37.69241407,"deptLongitude":127.793394},{"deptSeq":3108,"deptName":"노블렛유스호스텔","deptLatitude":33.34314033,"deptLongitude":126.696041},{"deptSeq":3111,"deptName":"노비오스","deptLatitude":35.78207529,"deptLongitude":129.330243},{"deptSeq":3133,"deptName":"노을앤바다 펜션","deptLatitude":37.27937502,"deptLongitude":126.457053},{"deptSeq":3138,"deptName":"노팅힐 펜션","deptLatitude":37.90223274,"deptLongitude":127.466918},{"deptSeq":3283,"deptName":"뉴월드빌라","deptLatitude":37.66938815,"deptLongitude":128.711978},{"deptSeq":3299,"deptName":"뉴호수장","deptLatitude":37.80377124,"deptLongitude":128.908777},{"deptSeq":3300,"deptName":"뉴힐링 스파펜션","deptLatitude":37.70933571,"deptLongitude":127.399616},{"deptSeq":3301,"deptName":"느낌 스파펜션","deptLatitude":34.68025341,"deptLongitude":127.776304},{"deptSeq":3306,"deptName":"느티나무펜션","deptLatitude":34.62420123,"deptLongitude":128.244983},{"deptSeq":3315,"deptName":"늘바다펜션","deptLatitude":33.23724316,"deptLongitude":126.36361},{"deptSeq":3556,"deptName":"다솜 스파펜션","deptLatitude":37.90106355,"deptLongitude":127.51919},{"deptSeq":3611,"deptName":"다온재 펜션","deptLatitude":33.45441172,"deptLongitude":126.90686},{"deptSeq":3622,"deptName":"다와풀빌라펜션","deptLatitude":33.24239602,"deptLongitude":126.368052},{"deptSeq":7340,"deptName":"리멤버 애견동반펜션","deptLatitude":36.43143714,"deptLongitude":126.403151},{"deptSeq":6794,"deptName":"또오개애견펜션","deptLatitude":37.52705903,"deptLongitude":127.748073},{"deptSeq":7394,"deptName":"리틀미코노스 펜션","deptLatitude":37.2353936,"deptLongitude":126.53175},{"deptSeq":7977,"deptName":"멍스테이","deptLatitude":38.26104765,"deptLongitude":128.559283},{"deptSeq":6871,"deptName":"라메르펜션","deptLatitude":36.90958766,"deptLongitude":129.415241},{"deptSeq":6874,"deptName":"라벤하임애견동반펜션","deptLatitude":37.70003108,"deptLongitude":128.690245},{"deptSeq":6878,"deptName":"라비앙","deptLatitude":37.62060204,"deptLongitude":128.350136},{"deptSeq":6886,"deptName":"라스텔라 스파펜션","deptLatitude":34.65548548,"deptLongitude":127.726633},{"deptSeq":7449,"deptName":"마레카펜션","deptLatitude":33.38812742,"deptLongitude":126.224887},{"deptSeq":7450,"deptName":"마렌626","deptLatitude":34.980017,"deptLongitude":127.944701},{"deptSeq":6912,"deptName":"라온제나","deptLatitude":33.24246552,"deptLongitude":126.304891},{"deptSeq":6946,"deptName":"라임오렌지펜션","deptLatitude":37.68221425,"deptLongitude":127.727635},{"deptSeq":8732,"deptName":"문광저수지","deptLatitude":36.76727721,"deptLongitude":127.748403},{"deptSeq":6972,"deptName":"랑랑 랑개 민박","deptLatitude":35.79603154,"deptLongitude":127.173445},{"deptSeq":7573,"deptName":"마이웨이 애견펜션","deptLatitude":37.64103668,"deptLongitude":127.632255},{"deptSeq":8783,"deptName":"물맑음펜션","deptLatitude":37.71283783,"deptLongitude":127.306716},{"deptSeq":7085,"deptName":"로마스파 애견동반 펜션","deptLatitude":37.25632939,"deptLongitude":126.518102},{"deptSeq":7104,"deptName":"로얄트리","deptLatitude":38.07855571,"deptLongitude":128.520188},{"deptSeq":7126,"deptName":"로하스펜션","deptLatitude":35.79611918,"deptLongitude":129.311127},{"deptSeq":7707,"deptName":"맘앤도그","deptLatitude":33.47089571,"deptLongitude":126.784504},{"deptSeq":7708,"deptName":"맘앤도그 단비","deptLatitude":33.46936873,"deptLongitude":126.784075},{"deptSeq":8681,"deptName":"무릉도원","deptLatitude":35.99964249,"deptLongitude":127.336178},{"deptSeq":8415,"deptName":"모두올레 애견펜션","deptLatitude":33.28193994,"deptLongitude":126.732375},{"deptSeq":8690,"deptName":"무안 동이트는집","deptLatitude":34.80345788,"deptLongitude":126.522759},{"deptSeq":8439,"deptName":"모모토토펜션","deptLatitude":34.75353677,"deptLongitude":127.903533},{"deptSeq":7915,"deptName":"멍멍플레이스","deptLatitude":33.41626963,"deptLongitude":126.379461},{"deptSeq":5665,"deptName":"더담양하우스","deptLatitude":35.18810421,"deptLongitude":127.008674},{"deptSeq":5680,"deptName":"더마루애견펜션","deptLatitude":36.57441335,"deptLongitude":126.326627},{"deptSeq":5681,"deptName":"더마을펜션","deptLatitude":37.68774352,"deptLongitude":127.36918},{"deptSeq":6269,"deptName":"동락원","deptLatitude":35.81686563,"deptLongitude":127.152651},{"deptSeq":5136,"deptName":"달빛길스테이","deptLatitude":35.83258929,"deptLongitude":127.342992},{"deptSeq":5137,"deptName":"달빛소리수목원","deptLatitude":35.93952701,"deptLongitude":127.033123},{"deptSeq":6732,"deptName":"디제이뭉","deptLatitude":37.67241849,"deptLongitude":127.483864},{"deptSeq":5766,"deptName":"더퍼피즈블루오션 애견펜션","deptLatitude":38.14196164,"deptLongitude":128.612459},{"deptSeq":6334,"deptName":"동백하우스","deptLatitude":34.83494864,"deptLongitude":128.409991},{"deptSeq":5833,"deptName":"덕적도 섬사랑 펜션","deptLatitude":37.22272203,"deptLongitude":126.118799},{"deptSeq":5286,"deptName":"대부도 미림펜션 신관","deptLatitude":37.26913639,"deptLongitude":126.453712},{"deptSeq":5287,"deptName":"대부바다향기테마파크","deptLatitude":37.28627433,"deptLongitude":126.574554},{"deptSeq":5886,"deptName":"도그마실 흙집사랑 펜션","deptLatitude":37.81793762,"deptLongitude":127.846672},{"deptSeq":5979,"deptName":"도그엔조이 애견펜션","deptLatitude":37.44880846,"deptLongitude":127.397019},{"deptSeq":6595,"deptName":"듀오펜션","deptLatitude":37.47943818,"deptLongitude":128.273707},{"deptSeq":6596,"deptName":"듀크하우스","deptLatitude":37.69825335,"deptLongitude":127.376196},{"deptSeq":6203,"deptName":"돌고개 휴펜션","deptLatitude":37.7475944,"deptLongitude":126.947859},{"deptSeq":11959,"deptName":"세인트존스 경포 호텔","deptLatitude":37.79128075,"deptLongitude":128.920931},{"deptSeq":11961,"deptName":"세인트펜션","deptLatitude":37.97008973,"deptLongitude":127.11349},{"deptSeq":12595,"deptName":"순천 노을펜션","deptLatitude":34.84339227,"deptLongitude":127.485331},{"deptSeq":12599,"deptName":"순천만 로맨스펜션","deptLatitude":34.89978114,"deptLongitude":127.504633},{"deptSeq":12632,"deptName":"숲속의 집","deptLatitude":37.93192757,"deptLongitude":128.674843},{"deptSeq":12634,"deptName":"숲속의핀란드 펜션","deptLatitude":36.76631265,"deptLongitude":126.186353},{"deptSeq":12640,"deptName":"쉐르빌","deptLatitude":37.70151912,"deptLongitude":127.596717},{"deptSeq":12650,"deptName":"슈가브리움 호텔 리조트","deptLatitude":34.69895866,"deptLongitude":127.755274},{"deptSeq":12094,"deptName":"소노펫 클럽앤리조트 비발디파크","deptLatitude":37.65233706,"deptLongitude":127.687335},{"deptSeq":12110,"deptName":"소라잡는댕댕이펜션","deptLatitude":36.56927096,"deptLongitude":126.321098},{"deptSeq":12750,"deptName":"스머프마을펜션","deptLatitude":34.78982707,"deptLongitude":127.840852},{"deptSeq":12753,"deptName":"스위트몽","deptLatitude":37.77474216,"deptLongitude":127.360976},{"deptSeq":12761,"deptName":"스윗트리 펜션","deptLatitude":37.60727817,"deptLongitude":127.670334},{"deptSeq":12764,"deptName":"스카이 비발디 펜션","deptLatitude":37.60978725,"deptLongitude":127.681526},{"deptSeq":11625,"deptName":"석모도 박정아펜션","deptLatitude":37.65528671,"deptLongitude":126.328586},{"deptSeq":12823,"deptName":"스테이감동","deptLatitude":37.67814504,"deptLongitude":127.735887},{"deptSeq":12825,"deptName":"스테이독 애견펜션","deptLatitude":37.25056726,"deptLongitude":126.521834},{"deptSeq":12827,"deptName":"스테이멍 애견펜션","deptLatitude":34.62396916,"deptLongitude":127.791666},{"deptSeq":12828,"deptName":"스테이솔티","deptLatitude":33.55462336,"deptLongitude":126.798376},{"deptSeq":12829,"deptName":"스테이원향","deptLatitude":35.85426304,"deptLongitude":128.599568},{"deptSeq":11687,"deptName":"선재도 아리랑힐 호텔 리조트","deptLatitude":37.25477277,"deptLongitude":126.516845},{"deptSeq":11688,"deptName":"선재도 종이학펜션","deptLatitude":37.24858338,"deptLongitude":126.525963},{"deptSeq":12254,"deptName":"솔펜션","deptLatitude":33.48598565,"deptLongitude":126.901797},{"deptSeq":12257,"deptName":"솔푸른향기펜션","deptLatitude":36.60023225,"deptLongitude":126.350279},{"deptSeq":12840,"deptName":"스페셜 W 모텔","deptLatitude":36.00118948,"deptLongitude":129.195076},{"deptSeq":11712,"deptName":"섬마을펜션","deptLatitude":34.81148899,"deptLongitude":128.68352},{"deptSeq":11713,"deptName":"섬진강대나무숲길","deptLatitude":35.18630767,"deptLongitude":127.465293},{"deptSeq":13528,"deptName":"아름드리 스파펜션","deptLatitude":37.86012544,"deptLongitude":127.240004},{"deptSeq":13295,"deptName":"썬하우스","deptLatitude":36.52554489,"deptLongitude":126.333743},{"deptSeq":13312,"deptName":"쓰담쓰담펜션","deptLatitude":37.96530739,"deptLongitude":127.33819},{"deptSeq":13317,"deptName":"씨사이드아덴","deptLatitude":33.24910501,"deptLongitude":126.414919},{"deptSeq":11779,"deptName":"성산일출봉 펜션","deptLatitude":33.46200674,"deptLongitude":126.934035},{"deptSeq":13448,"deptName":"아난티 남해 호텔","deptLatitude":34.77771827,"deptLongitude":127.854726},{"deptSeq":13459,"deptName":"아델펜션","deptLatitude":37.6211368,"deptLongitude":127.674184},{"deptSeq":12987,"deptName":"신나는 펜션","deptLatitude":37.79884888,"deptLongitude":128.813249},{"deptSeq":13541,"deptName":"아름펜션","deptLatitude":37.86469106,"deptLongitude":127.346847},{"deptSeq":13319,"deptName":"씨앤뷰 풀빌라펜션","deptLatitude":34.7506737,"deptLongitude":127.851048},{"deptSeq":13320,"deptName":"씨앤블루펜션","deptLatitude":34.68653963,"deptLongitude":127.777191},{"deptSeq":11367,"deptName":"서귀포 제주앓이 펜션","deptLatitude":33.25513164,"deptLongitude":126.491511},{"deptSeq":11368,"deptName":"서귀포 청 리조트","deptLatitude":33.25572265,"deptLongitude":126.497029},{"deptSeq":11369,"deptName":"서귀포 캠파제주","deptLatitude":33.29839473,"deptLongitude":126.600751},{"deptSeq":9132,"deptName":"바다빛무지개펜션","deptLatitude":37.94045523,"deptLongitude":128.78819},{"deptSeq":9150,"deptName":"바다와펜션","deptLatitude":37.84538858,"deptLongitude":128.869317},{"deptSeq":9784,"deptName":"벨루스로즈팬션","deptLatitude":35.85901332,"deptLongitude":129.260217},{"deptSeq":10363,"deptName":"뷰나인 펜션","deptLatitude":37.63606628,"deptLongitude":126.378064},{"deptSeq":9822,"deptName":"별빛정원펜션","deptLatitude":37.53611209,"deptLongitude":128.389513},{"deptSeq":10387,"deptName":"브로콜리펜션","deptLatitude":36.24964252,"deptLongitude":126.545119},{"deptSeq":9262,"deptName":"바산올레펜션","deptLatitude":33.23659918,"deptLongitude":126.363867},{"deptSeq":10488,"deptName":"비치하우스","deptLatitude":34.971707,"deptLongitude":128.697259},{"deptSeq":10532,"deptName":"빈티지라디오하우스 애견펜션","deptLatitude":36.46387512,"deptLongitude":126.416331},{"deptSeq":9352,"deptName":"반디빌리지","deptLatitude":37.64534721,"deptLongitude":127.507243},{"deptSeq":9993,"deptName":"복골온천","deptLatitude":38.14257792,"deptLongitude":128.565528},{"deptSeq":10651,"deptName":"사랑가펜션","deptLatitude":34.72434147,"deptLongitude":127.985587},{"deptSeq":11290,"deptName":"샌디애견하우스","deptLatitude":33.45954384,"deptLongitude":126.399422},{"deptSeq":11315,"deptName":"생각이나 펜션","deptLatitude":37.62584047,"deptLongitude":127.636859},{"deptSeq":10206,"deptName":"부산 반딧불이펜션","deptLatitude":35.35528689,"deptLongitude":129.25031},{"deptSeq":10207,"deptName":"부산 사직종합운동장 실내체육관 2층","deptLatitude":35.19231214,"deptLongitude":129.060681},{"deptSeq":10787,"deptName":"산내들 펜션","deptLatitude":37.53596855,"deptLongitude":128.389921},{"deptSeq":10806,"deptName":"산울터 애견펜션","deptLatitude":38.02546747,"deptLongitude":127.388128},{"deptSeq":10807,"deptName":"산음자연휴양림","deptLatitude":37.59613593,"deptLongitude":127.575206},{"deptSeq":9644,"deptName":"밸런스독 애견펜션","deptLatitude":37.46426742,"deptLongitude":127.655751},{"deptSeq":10240,"deptName":"부안 석란정펜션","deptLatitude":35.6091164,"deptLongitude":126.582658},{"deptSeq":10245,"deptName":"부엉이 애견펜션","deptLatitude":37.96795258,"deptLongitude":127.323697},{"deptSeq":10825,"deptName":"산타모니카펜션","deptLatitude":34.83521193,"deptLongitude":128.557169},{"deptSeq":10827,"deptName":"산타페펜션","deptLatitude":34.97653357,"deptLongitude":128.695149},{"deptSeq":9654,"deptName":"버드힐펜션","deptLatitude":37.51299582,"deptLongitude":127.590598},{"deptSeq":17744,"deptName":"전주 메이드 호텔","deptLatitude":35.83732954,"deptLongitude":127.169776},{"deptSeq":17746,"deptName":"전주 인터네셔널 게스트하우스","deptLatitude":35.85079129,"deptLongitude":127.160759},{"deptSeq":16057,"deptName":"울산 간절곶 등대펜션","deptLatitude":35.353607,"deptLongitude":129.346331},{"deptSeq":16641,"deptName":"을왕리 스와니펜션","deptLatitude":37.44678751,"deptLongitude":126.374106},{"deptSeq":17223,"deptName":"인천 라온제나힐 펜션","deptLatitude":37.28112418,"deptLongitude":126.488758},{"deptSeq":16642,"deptName":"을왕리 어울림펜션","deptLatitude":37.44974068,"deptLongitude":126.374047},{"deptSeq":16125,"deptName":"원더랜드 애견동반 캠핑 카라반","deptLatitude":35.61194551,"deptLongitude":128.821907},{"deptSeq":18092,"deptName":"제주 꽃담펜션","deptLatitude":33.47657146,"deptLongitude":126.909532},{"deptSeq":18093,"deptName":"제주 마루호텔앤카페","deptLatitude":33.27937507,"deptLongitude":126.317938},{"deptSeq":18094,"deptName":"제주 메모리 펜션","deptLatitude":33.25716787,"deptLongitude":126.49162},{"deptSeq":18095,"deptName":"제주 블루앤씨 펜션","deptLatitude":33.4027809,"deptLongitude":126.814657},{"deptSeq":18097,"deptName":"제주 앙크레펜션","deptLatitude":33.24208417,"deptLongitude":126.509739},{"deptSeq":18099,"deptName":"제주 애월코스트34","deptLatitude":33.47557128,"deptLongitude":126.369407},{"deptSeq":18100,"deptName":"제주 에이치빌풀펜션","deptLatitude":33.53165963,"deptLongitude":126.796347},{"deptSeq":18101,"deptName":"제주 와싱톤 펜션","deptLatitude":33.34195676,"deptLongitude":126.848748},{"deptSeq":17341,"deptName":"임실 달빛이 머무는 펜션","deptLatitude":35.58779064,"deptLongitude":127.102382},{"deptSeq":18176,"deptName":"젠틀펫파라다이스","deptLatitude":36.74205943,"deptLongitude":128.081734},{"deptSeq":16206,"deptName":"월송정","deptLatitude":36.7438306,"deptLongitude":129.468713},{"deptSeq":17388,"deptName":"자연블루베리가족펜션","deptLatitude":34.9377945,"deptLongitude":128.712799},{"deptSeq":17433,"deptName":"작은 통나무집","deptLatitude":37.45974629,"deptLongitude":128.27069},{"deptSeq":17437,"deptName":"작은행복 펜션","deptLatitude":36.1572254,"deptLongitude":129.396017},{"deptSeq":16291,"deptName":"위드멍","deptLatitude":37.74462358,"deptLongitude":127.353953},{"deptSeq":17476,"deptName":"장발장 펜션","deptLatitude":37.96015699,"deptLongitude":127.352629},{"deptSeq":16332,"deptName":"위클라드 애견 풀빌라","deptLatitude":35.74124402,"deptLongitude":129.307021},{"deptSeq":16338,"deptName":"위플독 펜션","deptLatitude":37.60669859,"deptLongitude":126.514193},{"deptSeq":16922,"deptName":"이몽기가 펜션","deptLatitude":37.26899494,"deptLongitude":126.447791},{"deptSeq":18104,"deptName":"제주 펠리체펜션","deptLatitude":33.23724751,"deptLongitude":126.29981},{"deptSeq":18105,"deptName":"제주 하도조은 펜션","deptLatitude":33.51137602,"deptLongitude":126.893856},{"deptSeq":18122,"deptName":"제주디오빌펜션","deptLatitude":33.25924502,"deptLongitude":126.410305},{"deptSeq":18123,"deptName":"제주레일바이크","deptLatitude":33.46431804,"deptLongitude":126.836601},{"deptSeq":16452,"deptName":"유에프오 펜션","deptLatitude":33.4855024,"deptLongitude":126.38184},{"deptSeq":17044,"deptName":"이지 펜션","deptLatitude":37.81524693,"deptLongitude":127.466588},{"deptSeq":17610,"deptName":"장사도펜션","deptLatitude":34.79560943,"deptLongitude":128.416383},{"deptSeq":18138,"deptName":"제주양떼목장펜션","deptLatitude":33.4113577,"deptLongitude":126.365216},{"deptSeq":18139,"deptName":"제주에코스위츠","deptLatitude":33.26540033,"deptLongitude":126.427737},{"deptSeq":18147,"deptName":"제주이서펜션","deptLatitude":33.34018158,"deptLongitude":126.85497},{"deptSeq":16494,"deptName":"유토피아펜션","deptLatitude":35.84761586,"deptLongitude":129.244434},{"deptSeq":17936,"deptName":"정읍 나의살던고향은","deptLatitude":35.51580748,"deptLongitude":126.797227},{"deptSeq":14313,"deptName":"어린왕자 애견펜션","deptLatitude":38.05768095,"deptLongitude":128.682752},{"deptSeq":14323,"deptName":"어반컨트리","deptLatitude":33.41006833,"deptLongitude":126.332423},{"deptSeq":14920,"deptName":"영흥도 바닷가펜션","deptLatitude":37.27110586,"deptLongitude":126.449162},{"deptSeq":14341,"deptName":"어우름 스파애견펜션","deptLatitude":34.79327307,"deptLongitude":128.665223},{"deptSeq":13760,"deptName":"아침에 새소리 펜션","deptLatitude":37.61691602,"deptLongitude":128.34208},{"deptSeq":13761,"deptName":"아침이슬펜션","deptLatitude":37.59761827,"deptLongitude":128.312054},{"deptSeq":14406,"deptName":"에버그린과파인트리 애견동반펜션","deptLatitude":34.79379126,"deptLongitude":128.664595},{"deptSeq":15960,"deptName":"우성펜션","deptLatitude":37.73082196,"deptLongitude":126.293718},{"deptSeq":15014,"deptName":"옛날에금잔디 펜션","deptLatitude":37.71611211,"deptLongitude":126.389213},{"deptSeq":15035,"deptName":"오뉴월펜션","deptLatitude":35.59079848,"deptLongitude":129.43082},{"deptSeq":15560,"deptName":"완도 리베라펜션","deptLatitude":34.33542702,"deptLongitude":126.81238},{"deptSeq":15568,"deptName":"완주 델루나펜션","deptLatitude":35.87641538,"deptLongitude":127.244166},{"deptSeq":13844,"deptName":"안면도해마루펜션","deptLatitude":36.53037699,"deptLongitude":126.332057},{"deptSeq":13845,"deptName":"안면암","deptLatitude":36.55942277,"deptLongitude":126.3738},{"deptSeq":13846,"deptName":"안면애견프리독펜션","deptLatitude":36.52523465,"deptLongitude":126.335735},{"deptSeq":15062,"deptName":"오늘하루 스파펜션","deptLatitude":37.74772764,"deptLongitude":127.351857},{"deptSeq":14484,"deptName":"에코피아","deptLatitude":37.98425203,"deptLongitude":127.439108},{"deptSeq":14511,"deptName":"엔젤하우스펜션","deptLatitude":33.47239839,"deptLongitude":126.357779},{"deptSeq":13918,"deptName":"알록달록비치펜션","deptLatitude":35.96266494,"deptLongitude":129.547737},{"deptSeq":13928,"deptName":"알앤비타운","deptLatitude":33.27989656,"deptLongitude":126.551752},{"deptSeq":14548,"deptName":"엘페로 애견리조트 펜션","deptLatitude":37.62483522,"deptLongitude":127.663242},{"deptSeq":14549,"deptName":"엘피라펜션","deptLatitude":34.71555038,"deptLongitude":128.62189},{"deptSeq":13941,"deptName":"알함브라 애견동반펜션","deptLatitude":34.7301466,"deptLongitude":127.86863},{"deptSeq":14569,"deptName":"여수 가즈아풀빌라","deptLatitude":34.70287737,"deptLongitude":127.757964},{"deptSeq":14570,"deptName":"여수 그린하우스 펜션","deptLatitude":34.74439725,"deptLongitude":127.584857},{"deptSeq":14571,"deptName":"여수 꿈에그린 애견동반펜션","deptLatitude":34.65823286,"deptLongitude":127.733367},{"deptSeq":14572,"deptName":"여수 나폴리 하우스","deptLatitude":34.64601933,"deptLongitude":127.793823},{"deptSeq":14573,"deptName":"여수 느낌 애견풀빌라","deptLatitude":34.67262535,"deptLongitude":127.782177},{"deptSeq":14574,"deptName":"여수 다시봄 애견동반 펜션","deptLatitude":34.65551872,"deptLongitude":127.727332},{"deptSeq":14575,"deptName":"여수 다옴","deptLatitude":34.69874146,"deptLongitude":127.762461},{"deptSeq":14576,"deptName":"여수 물음표펜션","deptLatitude":34.72765374,"deptLongitude":127.568323},{"deptSeq":14577,"deptName":"여수 복자 스파펜션","deptLatitude":34.65547838,"deptLongitude":127.726389},{"deptSeq":14578,"deptName":"여수 빌리지피어 펜션","deptLatitude":34.6698497,"deptLongitude":127.782648},{"deptSeq":14580,"deptName":"여수 안단테 스파 펜션","deptLatitude":34.6555004,"deptLongitude":127.726837},{"deptSeq":14586,"deptName":"여수바다향기 키즈가족 독채펜션","deptLatitude":34.66213479,"deptLongitude":127.739173},{"deptSeq":15715,"deptName":"우도봉 펜션","deptLatitude":33.50000002,"deptLongitude":126.96742},{"deptSeq":15717,"deptName":"우두리 포펫 펜션","deptLatitude":34.72526521,"deptLongitude":127.747329},{"deptSeq":14034,"deptName":"애견펜션 돌봄","deptLatitude":36.57630723,"deptLongitude":126.361625},{"deptSeq":14035,"deptName":"애견펜션하젠","deptLatitude":33.31800066,"deptLongitude":126.774513},{"deptSeq":15228,"deptName":"오해피펜션","deptLatitude":37.48021716,"deptLongitude":128.274891},{"deptSeq":15833,"deptName":"우리바다펜션","deptLatitude":33.3082858,"deptLongitude":126.815451},{"deptSeq":14104,"deptName":"애플롯지펜션","deptLatitude":37.70450215,"deptLongitude":127.448527},{"deptSeq":14116,"deptName":"앤드퍼피","deptLatitude":37.58896614,"deptLongitude":127.584716},{"deptSeq":14701,"deptName":"연우당 게스트하우스","deptLatitude":35.8155876,"deptLongitude":127.153111},{"deptSeq":14815,"deptName":"영덕오션펜션","deptLatitude":36.62868915,"deptLongitude":129.414942},{"deptSeq":15414,"deptName":"올레낭","deptLatitude":33.43484435,"deptLongitude":126.379982},{"deptSeq":15415,"deptName":"올레펜션","deptLatitude":36.20745902,"deptLongitude":129.371304},{"deptSeq":15416,"deptName":"올레하우스","deptLatitude":33.51327037,"deptLongitude":126.778444},{"deptSeq":14238,"deptName":"양사재","deptLatitude":35.81324536,"deptLongitude":127.154137},{"deptSeq":14854,"deptName":"영암연희한옥펜션","deptLatitude":34.7736987,"deptLongitude":126.645223},{"deptSeq":14882,"deptName":"영종씨사이드레일바이크","deptLatitude":37.48846007,"deptLongitude":126.576868},{"deptSeq":14302,"deptName":"어나더153","deptLatitude":37.5944154,"deptLongitude":126.437672},{"deptSeq":21296,"deptName":"평창힐링스테이","deptLatitude":37.34705428,"deptLongitude":128.412079},{"deptSeq":20728,"deptName":"펜션앤호텔뷰","deptLatitude":36.50344382,"deptLongitude":126.483204},{"deptSeq":20729,"deptName":"펜션정원","deptLatitude":33.30641961,"deptLongitude":126.775167},{"deptSeq":22710,"deptName":"해운대영무파라드호텔 반려견전용층보유","deptLatitude":35.16089963,"deptLongitude":129.166482},{"deptSeq":22715,"deptName":"해원의 작은집","deptLatitude":37.86029974,"deptLongitude":127.789709},{"deptSeq":22719,"deptName":"해품달","deptLatitude":35.81162831,"deptLongitude":127.153224},{"deptSeq":21386,"deptName":"포시즌펜션","deptLatitude":33.24856364,"deptLongitude":126.583467},{"deptSeq":21974,"deptName":"하늘숲 글램핑 파크","deptLatitude":37.90455082,"deptLongitude":127.562176},{"deptSeq":22001,"deptName":"하늘자락물소리펜션","deptLatitude":37.66315364,"deptLongitude":128.383118},{"deptSeq":22002,"deptName":"하늘정원","deptLatitude":37.44661833,"deptLongitude":126.472978},{"deptSeq":22600,"deptName":"해금강솔레미오펜션","deptLatitude":34.73994492,"deptLongitude":128.651345},{"deptSeq":22630,"deptName":"해뜨는창문 애견동반펜션","deptLatitude":38.13799024,"deptLongitude":128.615718},{"deptSeq":21418,"deptName":"포항 그랑모던풀빌라","deptLatitude":35.92830928,"deptLongitude":129.384405},{"deptSeq":21421,"deptName":"포항 발리오레 패밀리","deptLatitude":36.08021487,"deptLongitude":129.54653},{"deptSeq":21423,"deptName":"포항댕댕동산","deptLatitude":35.94897166,"deptLongitude":129.384243},{"deptSeq":22008,"deptName":"하늬바람 펜션","deptLatitude":37.72020118,"deptLongitude":128.816872},{"deptSeq":22060,"deptName":"하얀멍이펜션","deptLatitude":38.08286387,"deptLongitude":128.572268},{"deptSeq":21510,"deptName":"퐁당 애견펜션","deptLatitude":37.53271016,"deptLongitude":127.624802},{"deptSeq":22097,"deptName":"하이앤제이","deptLatitude":34.7320696,"deptLongitude":127.722875},{"deptSeq":22634,"deptName":"해룡 펜션","deptLatitude":33.46523005,"deptLongitude":126.935342},{"deptSeq":22640,"deptName":"해마루펜션","deptLatitude":34.72957339,"deptLongitude":128.617851},{"deptSeq":21536,"deptName":"푸른달 하루","deptLatitude":35.81835106,"deptLongitude":127.150821},{"deptSeq":21549,"deptName":"푸른바다","deptLatitude":34.73294204,"deptLongitude":127.583139},{"deptSeq":22132,"deptName":"하하호호프렌드","deptLatitude":34.80885697,"deptLongitude":128.663868},{"deptSeq":22748,"deptName":"해피월드종이학","deptLatitude":37.24858338,"deptLongitude":126.525963},{"deptSeq":21606,"deptName":"풀빛둥지 펜션","deptLatitude":37.99852876,"deptLongitude":128.642932},{"deptSeq":21608,"deptName":"풀하우스","deptLatitude":36.43944124,"deptLongitude":126.380832},{"deptSeq":22676,"deptName":"해성 펜션","deptLatitude":33.25442464,"deptLongitude":126.419878},{"deptSeq":22678,"deptName":"해성파크텔","deptLatitude":33.25227443,"deptLongitude":126.421344},{"deptSeq":22686,"deptName":"해안성 펜션","deptLatitude":33.24179965,"deptLongitude":126.531984},{"deptSeq":22789,"deptName":"햇살가득펜션","deptLatitude":35.79429549,"deptLongitude":129.310176},{"deptSeq":22583,"deptName":"핫도그 애견펜션","deptLatitude":36.66060999,"deptLongitude":126.299758},{"deptSeq":20608,"deptName":"팰리스1470 풀빌라펜션","deptLatitude":34.7487669,"deptLongitude":127.857064},{"deptSeq":20616,"deptName":"퍼니하우스","deptLatitude":35.3717687,"deptLongitude":127.019619},{"deptSeq":21756,"deptName":"플레이독 애견풀빌라","deptLatitude":37.74663494,"deptLongitude":127.353969},{"deptSeq":19513,"deptName":"칠포그린로즈 캠핑펜션야영장","deptLatitude":36.13546095,"deptLongitude":129.38499},{"deptSeq":19518,"deptName":"카르페디엠","deptLatitude":34.59427191,"deptLongitude":127.759603},{"deptSeq":18372,"deptName":"좋은아침팬션","deptLatitude":36.5291822,"deptLongitude":126.332706},{"deptSeq":19629,"deptName":"캐스팅 애견동반펜션","deptLatitude":35.78207966,"deptLongitude":129.490049},{"deptSeq":19097,"deptName":"천섬 리버뷰 커플 스파","deptLatitude":37.69724287,"deptLongitude":127.491994},{"deptSeq":19721,"deptName":"코나","deptLatitude":36.31752567,"deptLongitude":126.51284},{"deptSeq":20298,"deptName":"토마토 애견동반펜션","deptLatitude":37.62660724,"deptLongitude":126.37904},{"deptSeq":19192,"deptName":"청도 지성휴펜션","deptLatitude":35.66564081,"deptLongitude":128.57191},{"deptSeq":19771,"deptName":"코지펜션","deptLatitude":36.82968528,"deptLongitude":126.331912},{"deptSeq":20334,"deptName":"통나무꾸메푸메펜션","deptLatitude":34.78220761,"deptLongitude":128.430979},{"deptSeq":20344,"deptName":"통영여행게스트펜션","deptLatitude":34.82197082,"deptLongitude":128.439716},{"deptSeq":20348,"deptName":"통인1939","deptLatitude":37.57897275,"deptLongitude":126.970957},{"deptSeq":20355,"deptName":"통통게스트하우스","deptLatitude":34.86148256,"deptLongitude":128.652969},{"deptSeq":20388,"deptName":"트리하우스 펜션","deptLatitude":37.76211285,"deptLongitude":127.363964},{"deptSeq":19896,"deptName":"퀸스타운 애견펜션","deptLatitude":37.64653114,"deptLongitude":127.615046},{"deptSeq":19915,"deptName":"크리스마스펜션","deptLatitude":38.2609612,"deptLongitude":128.558678},{"deptSeq":20482,"deptName":"파로호꽃섬","deptLatitude":38.11469506,"deptLongitude":127.984782},{"deptSeq":19975,"deptName":"클래식펜션","deptLatitude":37.56081733,"deptLongitude":128.396588},{"deptSeq":19978,"deptName":"클럽더독스","deptLatitude":37.51572122,"deptLongitude":127.436634},{"deptSeq":20501,"deptName":"파인하우스","deptLatitude":36.50444988,"deptLongitude":126.335457},{"deptSeq":20502,"deptName":"파인힐 애견펜션","deptLatitude":37.86920213,"deptLongitude":128.831634},{"deptSeq":20515,"deptName":"파트라슈","deptLatitude":37.77811236,"deptLongitude":127.36201},{"deptSeq":19465,"deptName":"측도펜션","deptLatitude":37.233272,"deptLongitude":126.517671},{"deptSeq":19482,"deptName":"친구펜션","deptLatitude":34.76750442,"deptLongitude":128.42205},{"deptSeq":20073,"deptName":"타임펜션","deptLatitude":37.55030477,"deptLongitude":128.392743},{"deptSeq":18899,"deptName":"참맑은아침펜션","deptLatitude":35.79534352,"deptLongitude":129.310352},{"deptSeq":23585,"deptName":"휘겔빌리지","deptLatitude":37.668228,"deptLongitude":128.663788},{"deptSeq":23586,"deptName":"휘닉스아일랜드콘도","deptLatitude":33.42604238,"deptLongitude":126.926443},{"deptSeq":23000,"deptName":"허브빌 펜션","deptLatitude":38.07806915,"deptLongitude":127.321212},{"deptSeq":23001,"deptName":"허브아일랜드","deptLatitude":37.96592581,"deptLongitude":127.131708},{"deptSeq":23651,"deptName":"휴원경펜션","deptLatitude":37.51253614,"deptLongitude":128.390743},{"deptSeq":23046,"deptName":"헤이미쉬풀빌라","deptLatitude":35.78863776,"deptLongitude":129.30744},{"deptSeq":23713,"deptName":"힐리언스 선마을 힐리펫룸","deptLatitude":37.65154223,"deptLongitude":127.630341},{"deptSeq":23822,"deptName":"H moment 펜션","deptLatitude":35.18127775,"deptLongitude":129.20534},{"deptSeq":23254,"deptName":"호명호수","deptLatitude":37.74881158,"deptLongitude":127.475577},{"deptSeq":23256,"deptName":"호미곶해맞이광장","deptLatitude":36.07783791,"deptLongitude":129.568256},{"deptSeq":23257,"deptName":"호미반도해안둘레길","deptLatitude":36.01429685,"deptLongitude":129.478009},{"deptSeq":23282,"deptName":"호스텔 다현","deptLatitude":35.8502873,"deptLongitude":129.217901},{"deptSeq":23881,"deptName":"S모텔","deptLatitude":34.89282009,"deptLongitude":128.610901},{"deptSeq":23885,"deptName":"SEOSUNYA","deptLatitude":35.81906484,"deptLongitude":127.15269},{"deptSeq":23372,"deptName":"홍천강이야기 펜션","deptLatitude":37.69258267,"deptLongitude":127.625518},{"deptSeq":23378,"deptName":"홍천ST리조텔","deptLatitude":37.6172044,"deptLongitude":127.672419}] }